City_ID,City,Lat,Lng,Max Temp,Humidity,Cloudiness,Wind Speed,Country,Date
0,Punta Arenas,-53.15,-70.9167,274.21,75,0,5.66,CL,2022-05-28 01:47:15
1,Nuuk,64.1835,-51.7216,273.49,86,100,6.44,GL,2022-05-28 01:47:16
2,Mataura,-46.1927,168.8643,285.64,64,19,2.75,NZ,2022-05-28 01:47:16
3,Hilo,19.7297,-155.09,300.53,79,100,1.54,US,2022-05-28 01:47:17
4,Esperance,-33.8667,121.9,289.74,48,9,6.7,AU,2022-05-28 01:47:17
5,Georgetown,5.4112,100.3354,304.11,86,40,2.24,MY,2022-05-28 01:43:35
6,Nyurba,63.2842,118.3319,282.43,46,61,4.07,RU,2022-05-28 01:47:18
7,Kahului,20.8947,-156.47,301.16,62,75,8.75,US,2022-05-28 01:47:19
8,Jamestown,42.097,-79.2353,290.92,89,100,3.09,US,2022-05-28 01:45:48
9,Bredasdorp,-34.5322,20.0403,285.22,90,67,1.71,ZA,2022-05-28 01:47:19
10,Sambava,-14.2667,50.1667,293.9,87,65,3.7,MG,2022-05-28 01:47:20
11,La Paz,-16.5,-68.15,277.14,80,0,2.06,BO,2022-05-28 01:47:20
12,Bluff,-46.6,168.3333,285.82,74,92,4.37,NZ,2022-05-28 01:47:20
13,Warri,5.5167,5.75,296.19,96,92,1.67,NG,2022-05-28 01:47:21
14,Husavik,66.0449,-17.3389,277.1,84,5,2.77,IS,2022-05-28 01:47:21
15,Karratha,-20.7377,116.8463,299.43,72,95,4.55,AU,2022-05-28 01:47:22
16,Isangel,-19.55,169.2667,300.23,70,100,2.28,VU,2022-05-28 01:47:22
17,Ushuaia,-54.8,-68.3,274.96,80,100,14.4,AR,2022-05-28 01:47:07
18,Vaini,-21.2,-175.2,300.24,83,75,3.6,TO,2022-05-28 01:47:23
19,Port Hardy,50.6996,-127.4199,286.25,71,75,6.17,CA,2022-05-28 01:47:23
20,Magnolia,33.2671,-93.2393,294.98,88,0,1.05,US,2022-05-28 01:47:24
21,Chuy,-33.6971,-53.4616,284.79,90,65,3.06,UY,2022-05-28 01:47:24
22,Khatanga,71.9667,102.5,275.25,66,100,1.58,RU,2022-05-28 01:47:25
23,Margate,51.3813,1.3862,285.3,67,37,2.68,GB,2022-05-28 01:47:25
24,Hobyo,5.3505,48.5268,299.08,84,48,8.24,SO,2022-05-28 01:47:25
25,Batagay-Alyta,67.8006,130.4114,273.22,78,20,1.04,RU,2022-05-28 01:47:26
26,Sitka,57.0531,-135.33,290.09,55,40,5.14,US,2022-05-28 01:47:26
27,Tasiilaq,65.6145,-37.6368,277.24,76,100,3.82,GL,2022-05-28 01:47:27
28,Castro,-24.7911,-50.0119,286.43,86,6,1.66,BR,2022-05-28 01:47:27
29,Severo-Kurilsk,50.6789,156.125,280.61,87,100,1.7,RU,2022-05-28 01:47:28
30,Barra Do Garcas,-15.89,-52.2567,293.63,64,100,0.51,BR,2022-05-28 01:47:28
31,Luderitz,-26.6481,15.1594,285.56,86,0,3.02,NA,2022-05-28 01:47:29
32,Kapaa,22.0752,-159.319,300.44,63,40,5.66,US,2022-05-28 01:47:29
33,Coquimbo,-29.9533,-71.3436,285.0,100,100,2.57,CL,2022-05-28 01:43:16
34,Rikitea,-23.1203,-134.9692,298.11,73,19,5.31,PF,2022-05-28 01:47:30
35,Cayenne,4.9333,-52.3333,300.98,5,0,0.89,GF,2022-05-28 01:47:30
36,Busselton,-33.65,115.3333,290.12,69,0,3.45,AU,2022-05-28 01:47:30
37,Port Alfred,-33.5906,26.891,289.36,76,16,3.03,ZA,2022-05-28 01:47:31
38,Komsomolskiy,40.4272,71.7189,291.55,72,40,2.06,UZ,2022-05-28 01:47:31
39,Kununurra,-15.7667,128.7333,303.5,22,100,5.19,AU,2022-05-28 01:47:32
40,Mazatlan,23.2167,-106.4167,300.88,81,90,1.79,MX,2022-05-28 01:43:09
41,Lata,40.1629,-8.3327,291.52,39,0,2.19,PT,2022-05-28 01:47:33
42,Thompson,55.7435,-97.8558,281.24,61,75,1.54,CA,2022-05-28 01:47:33
43,Dikson,73.5069,80.5464,271.12,82,12,1.61,RU,2022-05-28 01:47:33
44,Bandarbeyla,9.4942,50.8122,300.22,72,38,8.64,SO,2022-05-28 01:47:34
45,Pryluky,50.5932,32.3876,283.01,95,100,5.07,UA,2022-05-28 01:47:34
46,South Yarmouth,41.6668,-70.1847,292.95,98,100,5.66,US,2022-05-28 01:47:35
47,Bati,11.1833,40.0167,295.01,29,100,2.73,ET,2022-05-28 01:47:36
48,Biltine,14.5333,20.9167,300.1,8,1,3.2,TD,2022-05-28 01:47:36
49,Itarema,-2.9248,-39.9167,297.37,82,71,3.32,BR,2022-05-28 01:47:36
50,La Asuncion,11.0333,-63.8628,300.0,83,100,4.63,VE,2022-05-28 01:47:37
51,Juba,4.8517,31.5825,293.89,92,98,1.71,SS,2022-05-28 01:47:37
52,Saskylakh,71.9167,114.0833,271.6,84,97,3.25,RU,2022-05-28 01:47:38
53,Chokurdakh,70.6333,147.9167,275.17,66,100,4.66,RU,2022-05-28 01:47:38
54,Katobu,-4.9408,122.5276,301.62,70,81,2.27,ID,2022-05-28 01:47:39
55,Souillac,-20.5167,57.5167,294.36,88,20,2.57,MU,2022-05-28 01:47:39
56,Banda Aceh,5.5577,95.3222,302.15,69,98,6.81,ID,2022-05-28 01:47:40
57,Machilipatnam,16.1667,81.1333,305.61,52,27,5.01,IN,2022-05-28 01:47:40
58,Anadyr,64.75,177.4833,286.43,54,0,3.0,RU,2022-05-28 01:47:41
59,Qaanaaq,77.484,-69.3632,265.4,93,97,0.61,GL,2022-05-28 01:47:41
60,Carnarvon,-24.8667,113.6333,294.03,71,100,4.68,AU,2022-05-28 01:47:42
61,Totskoye,52.5248,52.7623,283.86,91,2,5.23,RU,2022-05-28 01:47:42
62,Seoul,37.5683,126.9778,296.91,53,0,4.63,KR,2022-05-28 01:44:54
63,Puerto Ayora,-0.7393,-90.3518,295.12,93,95,2.24,EC,2022-05-28 01:47:43
64,Cape Town,-33.9258,18.4232,289.47,89,0,2.06,ZA,2022-05-28 01:43:49
65,Abapo,-18.8333,-63.4667,290.28,79,0,1.06,BO,2022-05-28 01:47:43
66,Provideniya,64.3833,-173.3,279.79,73,87,3.89,RU,2022-05-28 01:47:44
67,Geraldton,-28.7667,114.6,292.38,68,0,6.69,AU,2022-05-28 01:47:31
68,Albany,42.6001,-73.9662,294.51,81,100,3.3,US,2022-05-28 01:44:57
69,Afonso Claudio,-20.0742,-41.1239,291.41,98,100,0.86,BR,2022-05-28 01:47:45
70,Nanortalik,60.1432,-45.2371,276.56,85,100,2.91,GL,2022-05-28 01:47:45
71,Eirunepe,-6.6603,-69.8736,295.24,98,100,0.1,BR,2022-05-28 01:44:41
72,Butaritari,3.0707,172.7902,300.52,76,100,4.16,KI,2022-05-28 01:47:46
73,Yamaranguila,14.2833,-88.25,288.78,92,99,0.98,HN,2022-05-28 01:47:46
74,Ribeira Grande,38.5167,-28.7,290.41,92,100,6.87,PT,2022-05-28 01:47:47
75,Kaitangata,-46.2817,169.8464,285.54,63,59,2.48,NZ,2022-05-28 01:47:47
76,Hobart,-42.8794,147.3294,285.52,72,0,2.57,AU,2022-05-28 01:47:48
77,San Cristobal,7.7669,-72.225,297.25,97,100,1.5,VE,2022-05-28 01:47:19
78,Touros,-5.1989,-35.4608,297.51,92,100,4.81,BR,2022-05-28 01:47:49
79,Norman Wells,65.282,-126.8329,279.17,75,100,8.23,CA,2022-05-28 01:47:49
80,Lebu,-37.6167,-73.65,279.81,80,17,6.21,CL,2022-05-28 01:47:50
81,Tuktoyaktuk,69.4541,-133.0374,273.15,74,75,9.26,CA,2022-05-28 01:47:50
82,Wanning,18.8003,110.3967,302.95,77,89,3.96,CN,2022-05-28 01:47:50
83,Ambon,-3.6954,128.1814,303.23,70,40,2.06,ID,2022-05-28 01:47:51
84,Yellowknife,62.456,-114.3525,290.44,39,75,2.57,CA,2022-05-28 01:47:52
85,East London,-33.0153,27.9116,288.47,61,16,2.26,ZA,2022-05-28 01:47:52
86,Parauna,-16.9478,-50.4486,292.29,54,100,1.49,BR,2022-05-28 01:47:53
87,Panaba,21.2833,-88.2667,299.0,77,100,4.95,MX,2022-05-28 01:47:53
88,Umm Kaddadah,13.6017,26.6876,298.05,11,5,5.24,SD,2022-05-28 01:47:54
89,Hambantota,6.1241,81.1185,298.34,100,20,3.6,LK,2022-05-28 01:47:54
90,Inta,66.0317,60.1659,283.27,84,46,5.09,RU,2022-05-28 01:47:54
91,Bethel,41.3712,-73.414,292.61,91,100,0.45,US,2022-05-28 01:47:55
92,Barrow,71.2906,-156.7887,274.16,86,100,7.2,US,2022-05-28 01:47:55
93,Bontang,0.1333,117.5,299.01,82,100,0.89,ID,2022-05-28 01:47:56
94,Meadow Lake,34.8014,-106.5436,302.86,16,100,4.87,US,2022-05-28 01:43:08
95,Avarua,-21.2078,-159.775,299.18,83,75,2.06,CK,2022-05-28 01:47:56
96,Kruisfontein,-34.0033,24.7314,285.81,67,75,2.36,ZA,2022-05-28 01:47:57
97,Nikolskoye,59.7035,30.7861,282.99,97,100,0.95,RU,2022-05-28 01:47:57
98,Vila Velha,-20.3297,-40.2925,293.12,97,75,2.06,BR,2022-05-28 01:47:34
99,Port Elizabeth,-33.918,25.5701,284.31,100,0,1.54,ZA,2022-05-28 01:47:58
100,Mareeba,-17.0,145.4333,299.63,60,70,0.71,AU,2022-05-28 01:47:58
101,Ouro Preto Do Oeste,-10.7481,-62.2158,295.54,75,19,1.38,BR,2022-05-28 01:47:59
102,Ornskoldsvik,63.2909,18.7153,281.02,90,100,3.39,SE,2022-05-28 01:47:59
103,Saraland,30.8207,-88.0706,299.16,54,0,2.18,US,2022-05-28 01:48:00
104,Caravelas,-17.7125,-39.2481,294.72,90,94,2.57,BR,2022-05-28 01:48:00
105,Mar Del Plata,-38.0023,-57.5575,282.64,83,0,2.24,AR,2022-05-28 01:46:18
106,Saldanha,-33.0117,17.9442,283.18,89,3,2.14,ZA,2022-05-28 01:48:01
107,Aklavik,68.2191,-135.0107,276.91,59,99,7.89,CA,2022-05-28 01:48:01
108,Mandalgovi,45.7625,106.2708,280.83,72,100,5.07,MN,2022-05-28 01:48:02
109,Yarkovo,57.4028,67.0786,284.27,79,15,3.86,RU,2022-05-28 01:48:02
110,Vostok,46.4856,135.8833,285.13,84,99,0.94,RU,2022-05-28 01:48:03
111,Deputatskiy,69.3,139.9,272.31,85,100,0.81,RU,2022-05-28 01:48:03
112,Roma,43.2128,-75.4557,292.44,94,100,4.12,US,2022-05-28 01:48:04
113,Broken Hill,-31.95,141.4333,288.26,57,0,3.94,AU,2022-05-28 01:47:28
114,Sile,41.1754,29.6133,290.52,74,0,1.91,TR,2022-05-28 01:48:05
115,Beloha,-25.1667,45.05,288.86,69,2,2.38,MG,2022-05-28 01:48:05
116,Chapais,49.7834,-74.8492,285.03,97,100,2.39,CA,2022-05-28 01:47:45
117,Saint George,37.1041,-113.5841,307.48,10,0,6.69,US,2022-05-28 01:45:22
118,Tuatapere,-46.1333,167.6833,285.97,74,100,2.44,NZ,2022-05-28 01:48:06
119,Lamar,33.6668,-95.5836,300.1,41,0,2.06,US,2022-05-28 01:48:06
120,Mamboma,8.0833,-11.6833,296.07,99,100,0.83,SL,2022-05-28 01:48:07
121,Ust-Ilimsk,58.0006,102.6619,282.9,30,3,4.13,RU,2022-05-28 01:48:07
122,Waingapu,-9.6567,120.2641,301.78,72,100,5.69,ID,2022-05-28 01:48:08
123,Pisco,-13.7,-76.2167,290.18,77,6,4.63,PE,2022-05-28 01:48:08
124,Sorong,-0.8833,131.25,301.58,73,51,1.4,ID,2022-05-28 01:48:09
125,Salur,18.5333,83.2167,307.73,30,0,1.27,IN,2022-05-28 01:48:10
126,Qasigiannguit,68.8193,-51.1922,274.29,87,94,1.44,GL,2022-05-28 01:48:10
127,Todos Santos,23.45,-110.2167,295.93,64,2,2.77,MX,2022-05-28 01:48:10
128,Gobabis,-22.45,18.9667,285.46,30,0,4.78,NA,2022-05-28 01:48:11
129,Mount Gambier,-37.8333,140.7667,286.58,74,63,3.7,AU,2022-05-28 01:48:11
130,Turan,16.0678,108.2208,306.14,58,20,2.57,VN,2022-05-28 01:47:27
131,Kodiak,57.79,-152.4072,289.88,48,0,3.6,US,2022-05-28 01:48:12
132,Soyo,-6.1349,12.3689,295.75,85,0,2.71,AO,2022-05-28 01:48:13
133,Farah,32.5,62.5,291.58,35,0,2.64,AF,2022-05-28 01:48:13
134,Prieska,-29.6641,22.7474,288.08,43,0,1.91,ZA,2022-05-28 01:48:14
135,Kamaishi,39.2667,141.8833,289.72,71,74,3.66,JP,2022-05-28 01:48:14
136,La Palma,33.8464,-118.0467,296.99,65,0,6.17,US,2022-05-28 01:48:15
137,Benguela,-12.5763,13.4055,293.62,87,0,0.87,AO,2022-05-28 01:48:15
138,Pangody,65.85,74.4859,289.46,40,45,6.1,RU,2022-05-28 01:48:16
139,Sri Aman,1.2376,111.4621,298.2,88,20,1.03,MY,2022-05-28 01:48:16
140,Damavand,35.7178,52.065,286.26,39,0,1.27,IR,2022-05-28 01:48:17
141,Belmonte,-15.8631,-38.8828,295.73,87,78,3.81,BR,2022-05-28 01:48:17
142,Udachnyy,66.4167,112.4,280.07,48,97,2.27,RU,2022-05-28 01:48:18
143,Vallenar,-28.5708,-70.7581,288.52,58,0,1.3,CL,2022-05-28 01:48:18
144,Queanbeyan,-35.35,149.2333,287.1,88,40,1.03,AU,2022-05-28 01:48:19
145,Matamoros,25.5333,-103.25,304.57,17,2,9.73,MX,2022-05-28 01:48:19
146,Mitchell,43.7094,-98.0298,298.14,36,0,4.63,US,2022-05-28 01:45:11
147,Mayo,38.8876,-76.5119,294.96,90,100,4.63,US,2022-05-28 01:48:20
148,Hermanus,-34.4187,19.2345,288.48,73,38,1.99,ZA,2022-05-28 01:48:20
149,Pangnirtung,66.1451,-65.7125,264.1,94,60,2.98,CA,2022-05-28 01:48:21
150,Aldan,58.6031,125.3894,282.21,85,98,2.13,RU,2022-05-28 01:48:21
151,Roald,62.5833,6.1333,283.65,93,75,4.63,NO,2022-05-28 01:48:22
152,Igarka,67.4667,86.5833,284.45,50,7,0.85,RU,2022-05-28 01:48:22
153,Half Moon Bay,37.4636,-122.4286,294.83,78,100,7.72,US,2022-05-28 01:44:11
154,Paamiut,61.994,-49.6678,273.17,89,80,10.05,GL,2022-05-28 01:48:23
155,Ponta Do Sol,32.6667,-17.1,292.6,69,53,2.89,PT,2022-05-28 01:48:23
156,Ust-Kuyga,70.0167,135.6,275.05,62,96,0.46,RU,2022-05-28 01:48:24
157,Chumikan,54.7183,135.315,275.05,91,100,9.07,RU,2022-05-28 01:48:24
158,Messina,38.1933,15.5497,295.26,45,40,2.57,IT,2022-05-28 01:45:08
159,Zyryanka,65.75,150.85,283.09,42,55,1.37,RU,2022-05-28 01:48:25
160,Kazachinskoye,57.6953,93.2761,287.14,37,0,2.49,RU,2022-05-28 01:48:25
161,Tianpeng,30.9866,103.9393,292.41,63,77,2.54,CN,2022-05-28 01:48:26
162,Takoradi,4.8845,-1.7554,299.37,83,80,0.65,GH,2022-05-28 01:48:26
163,College,64.8569,-147.8028,296.19,23,20,6.17,US,2022-05-28 01:48:27
164,Ordu,40.9086,37.6845,280.43,59,0,2.48,TR,2022-05-28 01:48:27
165,Havre-Saint-Pierre,50.2334,-63.5986,280.35,87,100,6.69,CA,2022-05-28 01:48:28
166,Suntar,62.1444,117.6319,283.35,37,99,5.26,RU,2022-05-28 01:48:28
167,Chilmari,25.5559,89.6715,300.36,71,2,4.44,BD,2022-05-28 01:48:28
168,Beringovskiy,63.05,179.3167,280.71,72,88,7.63,RU,2022-05-28 01:48:29
169,Sosua,19.7667,-70.5167,297.17,100,75,0.0,DO,2022-05-28 01:48:29
170,Arraial Do Cabo,-22.9661,-42.0278,295.24,84,100,10.39,BR,2022-05-28 01:48:30
171,Along,28.1667,94.7667,297.85,86,93,0.28,IN,2022-05-28 01:48:30
172,Dingle,10.9995,122.6711,302.66,72,100,4.31,PH,2022-05-28 01:48:31
173,Merauke,-8.4667,140.3333,303.31,60,25,3.96,ID,2022-05-28 01:48:31
174,Victoria,22.2855,114.1577,305.47,84,80,4.02,HK,2022-05-28 01:48:32
175,Lorengau,-2.0226,147.2712,302.37,56,100,1.78,PG,2022-05-28 01:48:32
176,Bahia Blanca,-38.7196,-62.2724,279.43,58,88,1.01,AR,2022-05-28 01:48:32
177,Lisakovsk,52.5369,62.4936,287.4,60,0,4.3,KZ,2022-05-28 01:48:33
178,High Level,58.5169,-117.136,289.21,51,75,2.57,CA,2022-05-28 01:45:06
179,Codrington,-38.2667,141.9667,287.27,66,94,4.98,AU,2022-05-28 01:48:34
180,Opuwo,-18.0607,13.84,287.92,36,0,1.94,NA,2022-05-28 01:48:34
181,Baiyin,36.5583,104.2081,295.46,27,100,4.23,CN,2022-05-28 01:48:35
182,Overland,38.7012,-90.3623,290.76,86,42,1.66,US,2022-05-28 01:48:35
183,Clyde River,70.4692,-68.5914,265.28,93,100,2.57,CA,2022-05-28 01:48:35
184,Wuwei,37.9281,102.6414,298.97,19,9,3.37,CN,2022-05-28 01:48:37
185,Skjervoy,70.0311,20.9714,279.15,84,95,7.03,NO,2022-05-28 01:48:37
186,Cockburn Town,21.4612,-71.1419,299.96,73,35,9.04,TC,2022-05-28 01:44:42
187,Dubuque,42.4833,-90.8668,292.48,59,0,2.06,US,2022-05-28 01:45:27
188,Oyama,36.3,139.8,297.92,28,0,3.45,JP,2022-05-28 01:48:38
189,Sao Gabriel Da Cachoeira,-0.1303,-67.0892,295.54,98,100,0.83,BR,2022-05-28 01:48:39
190,Mingguang,32.7802,117.9638,295.69,52,100,3.05,CN,2022-05-28 01:48:39
191,Teya,60.3778,92.6267,286.2,37,11,1.52,RU,2022-05-28 01:48:40
192,Richards Bay,-28.783,32.0377,290.96,91,0,3.59,ZA,2022-05-28 01:48:40
193,Muros,42.7762,-9.0603,291.95,66,23,3.46,ES,2022-05-28 01:48:41
194,Atuona,-9.8,-139.0333,299.03,74,11,8.33,PF,2022-05-28 01:48:41
195,Malartic,48.1335,-78.1328,285.21,90,100,2.89,CA,2022-05-28 01:45:19
196,New Norfolk,-42.7826,147.0587,285.33,82,60,1.32,AU,2022-05-28 01:48:42
197,Izumo,35.3667,132.7667,298.12,60,75,10.29,JP,2022-05-28 01:48:42
198,Mahebourg,-20.4081,57.7,294.31,88,20,2.57,MU,2022-05-28 01:48:43
199,Aripuana,-9.1667,-60.6333,298.51,65,84,1.13,BR,2022-05-28 01:43:49
200,Cidreira,-30.1811,-50.2056,290.86,93,100,1.8,BR,2022-05-28 01:48:43
201,San Martin,-33.081,-68.4681,280.45,65,0,3.57,AR,2022-05-28 01:48:44
202,Bo Phloi,14.3236,99.5161,302.11,64,100,3.84,TH,2022-05-28 01:48:44
203,Saint-Louis,16.3333,-15.0,300.19,60,100,0.65,SN,2022-05-28 01:48:45
204,Itapaci,-14.9508,-49.5494,293.4,55,100,1.68,BR,2022-05-28 01:48:45
205,Vanimo,-2.6741,141.3028,303.32,64,91,1.79,PG,2022-05-28 01:48:46
206,Khorixas,-20.3667,14.9667,289.8,30,0,1.84,NA,2022-05-28 01:48:47
207,Kawalu,-7.3817,108.2082,300.5,69,89,1.03,ID,2022-05-28 01:48:47
208,Upernavik,72.7868,-56.1549,271.13,96,100,5.19,GL,2022-05-28 01:48:48
209,Shawnee,39.05,-95.7669,297.07,61,0,3.09,US,2022-05-28 01:48:48
210,Kings Park,40.8862,-73.2573,292.01,91,100,7.2,US,2022-05-28 01:48:48
211,Spearfish,44.4908,-103.8594,295.18,52,0,3.6,US,2022-05-28 01:48:49
212,Nhulunbuy,-12.2333,136.7667,303.49,58,75,6.69,AU,2022-05-28 01:48:49
213,Iskateley,67.6803,53.1512,283.43,71,98,3.41,RU,2022-05-28 01:48:50
214,Santa Vitoria Do Palmar,-33.5189,-53.3681,285.59,91,82,3.4,BR,2022-05-28 01:48:50
215,Bubaque,11.2833,-15.8333,299.0,81,100,3.57,GW,2022-05-28 01:48:51
216,Hualmay,-11.0964,-77.6139,290.14,85,45,3.81,PE,2022-05-28 01:48:51
217,Adrar,20.5022,-10.0711,301.99,43,89,6.06,MR,2022-05-28 01:48:52
218,Douentza,14.9951,-2.9517,307.31,23,90,2.73,ML,2022-05-28 01:48:52
219,Templemore,52.7947,-7.8339,281.17,90,10,1.44,IE,2022-05-28 01:48:52
220,Pringsewu,-5.3582,104.9744,296.74,94,98,0.77,ID,2022-05-28 01:48:53
221,Port Lincoln,-34.7333,135.8667,289.27,63,51,6.65,AU,2022-05-28 01:48:53
222,Khani,41.9563,42.9566,279.91,70,0,2.46,GE,2022-05-28 01:48:54
223,Hithadhoo,-0.6,73.0833,301.76,72,64,4.66,MV,2022-05-28 01:48:55
224,Chifeng,42.2683,118.9636,298.31,30,80,2.83,CN,2022-05-28 01:48:55
225,Horodyshche,49.2849,31.4451,284.49,85,100,5.13,UA,2022-05-28 01:48:56
226,Lodja,-3.4833,23.4333,293.99,94,90,0.13,CD,2022-05-28 01:48:56
227,Rio Gallegos,-51.6226,-69.2181,275.18,87,40,8.75,AR,2022-05-28 01:48:57
228,Menongue,-14.6585,17.691,283.79,62,0,1.57,AO,2022-05-28 01:48:57
229,Garowe,8.4054,48.4845,298.59,68,36,9.72,SO,2022-05-28 01:48:58
230,Unna,51.5333,7.6833,283.36,77,10,5.14,DE,2022-05-28 01:48:58
231,Fort William,56.8165,-5.1121,281.1,89,100,1.25,GB,2022-05-28 01:48:58
232,Pozhva,59.0912,56.0847,282.81,83,100,2.84,RU,2022-05-28 01:48:59
233,Bambous Virieux,-20.3428,57.7575,294.29,88,20,2.57,MU,2022-05-28 01:48:59
234,Ampanihy,-24.7,44.75,287.82,77,0,2.67,MG,2022-05-28 01:49:00
235,Oistins,13.0667,-59.5333,300.2,74,40,7.72,BB,2022-05-28 01:49:00
236,Cooma,-36.2333,149.1333,282.02,100,100,2.57,AU,2022-05-28 01:49:00
237,Abu Kamal,34.4506,40.9171,298.57,24,0,2.99,SY,2022-05-28 01:49:01
238,Nadym,65.5333,72.5167,290.11,36,15,7.35,RU,2022-05-28 01:49:02
239,Yinchuan,38.4681,106.2731,301.02,10,100,2.92,CN,2022-05-28 01:49:02
240,Kulhudhuffushi,6.6221,73.07,301.49,73,61,6.88,MV,2022-05-28 01:49:03
241,Lompoc,34.6391,-120.4579,292.6,63,40,5.14,US,2022-05-28 01:49:03
242,Bengkulu,-3.8004,102.2655,298.92,87,100,4.92,ID,2022-05-28 01:49:04
243,Sangar,63.9242,127.4739,284.83,47,100,0.17,RU,2022-05-28 01:49:04
244,Maniitsoq,65.4167,-52.9,271.3,76,60,3.58,GL,2022-05-28 01:49:05
245,Boddam,57.4667,-1.7833,281.36,89,6,7.9,GB,2022-05-28 01:49:05
246,Sao Joao Da Barra,-21.6403,-41.0511,295.11,83,100,5.02,BR,2022-05-28 01:49:06
247,Iqaluit,63.7506,-68.5145,270.0,86,75,3.09,CA,2022-05-28 01:49:06
248,Pacific Grove,36.6177,-121.9166,291.6,76,0,4.12,US,2022-05-28 01:49:06
249,Port Macquarie,-31.4333,152.9167,295.31,60,94,0.86,AU,2022-05-28 01:46:08
250,Banbury,52.0602,-1.3403,281.95,68,56,3.8,GB,2022-05-28 01:49:07
251,Sorland,67.667,12.6934,280.07,90,100,12.24,NO,2022-05-28 01:49:08
252,Deer Lake,49.1667,-57.4316,279.07,81,75,1.54,CA,2022-05-28 01:49:08
253,Antsirabe,-19.85,47.0333,284.1,96,32,1.71,MG,2022-05-28 01:49:09
254,Teguldet,57.3064,88.1667,288.12,41,84,3.56,RU,2022-05-28 01:49:09
255,Bowen,-20.0167,148.2333,297.5,54,0,1.85,AU,2022-05-28 01:49:09
256,Cerro De Pasco,-10.6833,-76.2667,273.69,94,26,0.99,PE,2022-05-28 01:49:10
257,Muli,2.9167,73.5667,301.79,71,10,6.04,MV,2022-05-28 01:49:10
258,Marawi,7.9986,124.2928,297.48,86,79,2.51,PH,2022-05-28 01:49:11
259,Antalaha,-14.9003,50.2788,293.76,85,33,2.87,MG,2022-05-28 01:49:11
260,Palmares Do Sul,-30.2578,-50.5097,290.66,93,100,1.84,BR,2022-05-28 01:49:12
261,Hovd,48.0056,91.6419,288.97,48,26,5.51,MN,2022-05-28 01:49:13
262,Lyubech,51.7026,30.6569,281.61,94,82,5.34,UA,2022-05-28 01:49:13
263,Letlhakane,-21.4167,25.5833,285.98,80,0,3.87,BW,2022-05-28 01:45:17
264,Waddan,29.1614,16.139,298.32,32,1,3.73,LY,2022-05-28 01:49:14
265,Salalah,17.0151,54.0924,302.2,74,75,2.06,OM,2022-05-28 01:44:54
266,Nome,64.5011,-165.4064,277.19,87,100,6.17,US,2022-05-28 01:46:39
267,Amga,60.8953,131.9608,288.55,44,61,5.05,RU,2022-05-28 01:49:15
268,Maple Creek,49.9168,-109.4848,291.18,63,66,3.6,CA,2022-05-28 01:49:15
269,Marienburg,54.0359,19.0266,281.55,85,100,6.04,PL,2022-05-28 01:49:16
270,Idlib,35.9306,36.6339,294.18,38,0,1.14,SY,2022-05-28 01:49:16
271,Avera,33.194,-82.5271,297.88,57,87,2.96,US,2022-05-28 01:49:17
272,Saint-Philippe,-21.3585,55.7679,293.92,81,56,4.72,RE,2022-05-28 01:49:17
273,Smyrna,33.884,-84.5144,295.96,67,20,4.12,US,2022-05-28 01:49:17
274,Brasilia,-15.7797,-47.9297,291.66,68,0,2.06,BR,2022-05-28 01:44:19
275,Banamba,13.55,-7.45,302.22,49,52,3.8,ML,2022-05-28 01:49:18
276,Fortuna,40.5982,-124.1573,288.67,88,100,4.12,US,2022-05-28 01:49:19
277,Kavieng,-2.5744,150.7967,301.84,60,100,1.6,PG,2022-05-28 01:49:19
278,Toora-Khem,52.4675,96.11,285.82,47,6,2.76,RU,2022-05-28 01:49:19
279,Kuusamo,65.9667,29.1833,277.17,100,100,1.03,FI,2022-05-28 01:49:20
280,Hirado,33.3597,129.5531,294.54,69,100,3.38,JP,2022-05-28 01:49:20
281,Umm Lajj,25.0213,37.2685,299.03,54,0,4.63,SA,2022-05-28 01:49:21
282,Americus,32.0724,-84.2327,300.22,54,40,2.06,US,2022-05-28 01:49:21
283,Hasaki,35.7333,140.8333,300.53,59,1,1.93,JP,2022-05-28 01:49:22
284,Riyadh,24.6877,46.7219,301.23,20,0,2.32,SA,2022-05-28 01:49:22
285,Grindavik,63.8424,-22.4338,282.41,87,75,6.69,IS,2022-05-28 01:49:22
286,Santiago De Cuba,20.0247,-75.8219,300.21,83,20,1.03,CU,2022-05-28 01:49:23
287,Exeter,50.7236,-3.5275,284.25,87,0,1.54,GB,2022-05-28 01:49:23
288,Chimbarongo,-34.7,-71.05,280.22,72,100,0.87,CL,2022-05-28 01:49:24
289,Campbeltown,55.4258,-5.6076,282.18,78,100,5.3,GB,2022-05-28 01:49:24
290,Airai,-8.9266,125.4092,295.53,53,32,1.48,TL,2022-05-28 01:49:25
291,Constitucion,-35.3333,-72.4167,282.26,64,100,2.38,CL,2022-05-28 01:49:25
292,Te Anau,-45.4167,167.7167,285.21,73,100,2.96,NZ,2022-05-28 01:49:26
293,Ungheni,47.2042,27.7958,285.53,80,0,2.57,MD,2022-05-28 01:49:26
294,Paita,-5.0892,-81.1144,291.81,81,68,6.94,PE,2022-05-28 01:49:27
295,Camacha,33.0833,-16.3333,289.83,77,40,4.12,PT,2022-05-28 01:49:27
296,Shimanovsk,52.0,127.7,286.93,85,100,5.97,RU,2022-05-28 01:49:28
297,Valdivia,-39.8142,-73.2459,279.2,95,4,0.82,CL,2022-05-28 01:49:28
298,Lavrentiya,65.5833,-171.0,278.57,78,40,2.92,RU,2022-05-28 01:49:29
299,Pascagoula,30.3658,-88.5561,299.18,77,0,0.0,US,2022-05-28 01:49:29
300,Damghan,36.1683,54.348,288.74,34,0,0.61,IR,2022-05-28 01:49:29
301,Alta Floresta,-9.8756,-56.0861,295.93,70,87,1.64,BR,2022-05-28 01:49:30
302,Caraquet,47.7941,-64.9386,280.45,99,100,4.38,CA,2022-05-28 01:49:30
303,Faya,18.3851,42.4509,291.21,36,6,0.82,SA,2022-05-28 01:49:31
304,Morondava,-20.2833,44.2833,294.55,60,0,4.58,MG,2022-05-28 01:49:31
305,Guerrero Negro,27.9769,-114.0611,290.17,78,0,8.44,MX,2022-05-28 01:49:32
306,Ilulissat,69.2167,-51.1,274.16,75,100,1.03,GL,2022-05-28 01:49:32
307,Augustow,53.8432,22.9798,278.56,94,26,4.35,PL,2022-05-28 01:49:32
308,Nicoya,10.1483,-85.452,298.99,85,100,0.43,CR,2022-05-28 01:49:33
309,Klaksvik,62.2266,-6.589,278.66,81,94,10.52,FO,2022-05-28 01:49:34
310,Sinnamary,5.3833,-52.95,298.78,84,19,3.36,GF,2022-05-28 01:49:34
311,Bauchi,10.5,10.0,298.27,61,7,1.97,NG,2022-05-28 01:49:34
312,Fairbanks,64.8378,-147.7164,296.2,23,0,6.17,US,2022-05-28 01:49:03
313,Monterotondo,42.0525,12.6187,296.27,75,100,2.6,IT,2022-05-28 01:49:35
314,Bilibino,68.0546,166.4372,277.38,88,100,0.66,RU,2022-05-28 01:49:35
315,Coihaique,-45.5752,-72.0662,275.49,80,0,2.06,CL,2022-05-28 01:49:02
316,Mirador,-6.3708,-44.3631,295.96,74,12,1.26,BR,2022-05-28 01:49:36
317,Tamayo,18.3947,-71.2029,298.16,79,92,1.19,DO,2022-05-28 01:49:37
318,Vestmannaeyjar,63.4427,-20.2734,282.25,84,18,7.37,IS,2022-05-28 01:49:37
319,Port Keats,-14.25,129.55,304.08,29,1,3.84,AU,2022-05-28 01:49:38
320,Biskamzha,53.4497,89.5272,288.8,44,75,1.73,RU,2022-05-28 01:49:38
321,Tortona,44.8978,8.8637,294.07,63,36,1.23,IT,2022-05-28 01:49:38
322,Porbandar,21.6422,69.6093,301.01,74,100,9.22,IN,2022-05-28 01:49:39
323,Avanigadda,16.0215,80.9181,307.7,32,37,5.1,IN,2022-05-28 01:49:40
324,Faanui,-16.4833,-151.75,300.6,62,0,7.4,PF,2022-05-28 01:45:59
325,Yatou,37.15,122.3833,299.44,38,94,7.81,CN,2022-05-28 01:49:40
326,Tiksi,71.6872,128.8694,273.24,81,100,3.1,RU,2022-05-28 01:49:41
327,Ozernovskiy,51.5,156.5167,278.12,89,100,2.32,RU,2022-05-28 01:49:41
328,Hirara,24.8,125.2833,301.3,94,75,6.69,JP,2022-05-28 01:49:42
329,Tautira,-17.7333,-149.15,299.76,70,5,5.8,PF,2022-05-28 01:49:42
330,Sur,22.5667,59.5289,302.98,56,0,4.15,OM,2022-05-28 01:49:42
331,Gorontalo,0.5412,123.0595,297.17,96,100,1.3,ID,2022-05-28 01:49:43
332,Sampit,-2.5333,112.95,302.87,63,18,0.43,ID,2022-05-28 01:49:44
333,Marfino,55.7028,37.3822,279.29,86,0,3.0,RU,2022-05-28 01:49:44
334,Yanam,16.7333,82.2167,305.66,55,0,2.91,IN,2022-05-28 01:49:44
335,Houston,29.7633,-95.3633,306.16,44,0,5.14,US,2022-05-28 01:45:41
336,Jucuaran,13.2539,-88.2478,293.26,95,90,1.61,SV,2022-05-28 01:49:45
337,Vila,42.0304,-8.1588,290.64,39,2,2.96,PT,2022-05-28 01:49:46
338,Blagoyevo,63.3667,47.9167,283.49,70,100,4.6,RU,2022-05-28 01:49:46
339,San Jose,37.3394,-121.895,295.84,60,100,8.23,US,2022-05-28 01:45:35
340,Shihezi,44.3,86.0333,302.28,24,3,7.77,CN,2022-05-28 01:49:47
341,Aswan,24.0934,32.907,301.76,20,0,2.06,EG,2022-05-28 01:49:47
342,Svetlaya,46.5389,138.3297,283.4,91,99,5.44,RU,2022-05-28 01:49:48
343,Terney,45.0503,136.6092,286.17,85,97,0.94,RU,2022-05-28 01:49:48
344,Lerwick,60.1545,-1.1494,282.15,73,100,7.92,GB,2022-05-28 01:49:49
345,Boyany,48.2708,26.1262,287.23,82,100,3.04,UA,2022-05-28 01:49:49
346,Santa Rita,-7.1139,-34.9781,297.52,100,100,3.09,BR,2022-05-28 01:49:50
347,Maceio,-9.6658,-35.7353,296.84,88,100,1.54,BR,2022-05-28 01:49:50
348,Cam Ranh,11.9214,109.1591,304.13,62,20,2.06,VN,2022-05-28 01:49:51
349,Grand Island,40.925,-98.342,301.12,42,0,6.69,US,2022-05-28 01:49:51
350,Quelimane,-17.8786,36.8883,294.05,74,10,2.07,MZ,2022-05-28 01:49:52
351,Kurilsk,45.2333,147.8833,281.02,95,100,7.22,RU,2022-05-28 01:49:52
352,Ziarat,30.3823,67.7282,290.95,10,0,3.11,PK,2022-05-28 01:49:53
353,Pedra Azul,-16.0053,-41.2972,286.63,90,46,0.69,BR,2022-05-28 01:49:53
354,Buchanan,5.8808,-10.0467,298.36,89,66,3.09,LR,2022-05-28 01:49:54
355,Cesenatico,44.1999,12.3991,296.13,91,0,2.06,IT,2022-05-28 01:49:54
356,Sauk Rapids,45.5919,-94.1661,296.14,46,0,3.6,US,2022-05-28 01:49:54
357,Jiexiu,37.0244,111.9125,300.15,36,2,4.21,CN,2022-05-28 01:49:55
358,Mae Hong Son,19.3003,97.9685,300.23,74,20,1.03,TH,2022-05-28 01:49:56
359,Kalmunai,7.4167,81.8167,299.85,75,100,2.08,LK,2022-05-28 01:49:56
360,Santa Maria,-29.6842,-53.8069,291.76,82,75,2.06,BR,2022-05-28 01:49:08
361,Biharamulo,-2.6319,31.3089,288.38,92,62,0.65,TZ,2022-05-28 01:49:57
362,La Ronge,55.1001,-105.2842,290.29,42,75,5.66,CA,2022-05-28 01:49:57
363,Loanda,-8.8368,13.2343,295.15,88,75,1.54,AO,2022-05-28 01:49:59
364,Chuguyevka,44.1653,133.8633,292.18,55,39,2.34,RU,2022-05-28 01:49:59
365,Tabou,4.423,-7.3528,298.67,87,99,2.86,CI,2022-05-28 01:50:00
366,Cap Malheureux,-19.9842,57.6142,293.97,79,0,3.7,MU,2022-05-28 01:50:00
367,Berlevag,70.8578,29.0864,278.12,93,100,10.8,NO,2022-05-28 01:50:01
368,Padilla,3.2204,-76.3139,296.91,83,100,2.11,CO,2022-05-28 01:50:02
369,San Joaquin,37.9333,-121.3011,300.29,43,0,6.17,US,2022-05-28 01:50:03
370,Deep River,46.1001,-77.4995,290.01,94,100,2.42,CA,2022-05-28 01:50:05
371,Houma,29.5958,-90.7195,299.26,78,0,0.0,US,2022-05-28 01:48:34
372,Brokopondo,4.75,-55.1667,297.51,89,36,3.73,SR,2022-05-28 01:50:06
373,Bangangte,5.1409,10.5198,289.18,94,97,1.11,CM,2022-05-28 01:50:06
374,Hay River,60.8156,-115.7999,289.14,41,75,3.6,CA,2022-05-28 01:45:19
375,Lobito,-12.3481,13.5456,294.55,84,10,1.24,AO,2022-05-28 01:50:07
376,Pasvalys,56.0594,24.4036,278.36,95,47,4.97,LT,2022-05-28 01:50:08
377,Ejido,8.5514,-71.2375,291.9,83,100,3.51,VE,2022-05-28 01:50:08
378,Longyearbyen,78.2186,15.6401,276.13,68,80,1.68,SJ,2022-05-28 01:50:09
379,Namatanai,-3.6667,152.4333,302.36,68,100,3.42,PG,2022-05-28 01:50:09
380,Los Banos,14.1667,121.1833,300.23,73,95,0.95,PH,2022-05-28 01:50:10
381,Mutsu,41.2894,141.2169,290.26,68,16,8.0,JP,2022-05-28 01:50:10
382,Oktyabrskiy,54.4815,53.471,283.49,86,100,6.05,RU,2022-05-28 01:50:11
383,Evensk,61.95,159.2333,277.03,97,100,0.6,RU,2022-05-28 01:50:11
384,Sola,-13.8833,167.55,299.69,67,100,1.52,VU,2022-05-28 01:50:12
385,Naze,28.3667,129.4833,295.66,67,100,3.87,JP,2022-05-28 01:50:12
386,Angoram,-4.0625,144.0661,306.05,54,85,0.23,PG,2022-05-28 01:50:13
387,Souris,49.6172,-100.2612,290.07,87,100,5.96,CA,2022-05-28 01:50:13
388,Luwuk,-0.9516,122.7875,300.34,79,100,0.64,ID,2022-05-28 01:50:14
389,Korla,41.7597,86.1469,299.35,26,71,3.83,CN,2022-05-28 01:50:14
390,Nazarovo,56.0064,90.3914,287.41,43,7,4.33,RU,2022-05-28 01:50:15
391,Aden,12.7794,45.0367,302.39,76,68,3.45,YE,2022-05-28 01:50:15
392,Sabang,5.8933,95.3214,301.75,74,95,10.55,ID,2022-05-28 01:50:16
393,Seybaplaya,19.65,-90.6667,296.85,81,100,6.3,MX,2022-05-28 01:50:16
394,Cumana,10.4635,-64.1775,298.67,85,100,3.04,VE,2022-05-28 01:50:16
395,Melilla,35.2937,-2.9383,294.36,68,0,2.06,ES,2022-05-28 01:50:17
396,San Patricio,28.017,-97.5169,303.55,73,0,5.14,US,2022-05-28 01:50:17
397,Shingu,33.7333,135.9833,299.2,40,7,5.06,JP,2022-05-28 01:50:18
398,Kiruna,67.8557,20.2251,276.66,93,100,7.2,SE,2022-05-28 01:50:18
399,Finspang,58.7058,15.7674,282.1,96,100,3.54,SE,2022-05-28 01:50:19
400,Fallon,39.4735,-118.7774,299.08,21,100,10.29,US,2022-05-28 01:48:58
401,Itaituba,-4.2761,-55.9836,297.95,84,98,1.16,BR,2022-05-28 01:50:20
402,Grimshaw,56.1834,-117.6027,284.94,87,100,2.06,CA,2022-05-28 01:50:20
403,Escanaba,45.7453,-87.0646,290.13,51,0,2.57,US,2022-05-28 01:50:20
404,Oussouye,12.485,-16.5469,296.25,76,100,2.44,SN,2022-05-28 01:50:21
405,Scottsbluff,41.8666,-103.6672,301.28,24,0,4.63,US,2022-05-28 01:50:21
406,Silver City,32.7701,-108.2803,304.13,9,0,5.14,US,2022-05-28 01:50:22
407,Saint-Augustin,51.226,-58.6502,279.16,64,74,3.14,CA,2022-05-28 01:50:22
408,Pevek,69.7008,170.3133,272.41,78,75,5.35,RU,2022-05-28 01:50:23
409,Limulunga,-15.0969,23.1376,286.36,57,0,2.75,ZM,2022-05-28 01:50:23
410,Ancud,-41.8697,-73.8203,278.14,85,6,1.64,CL,2022-05-28 01:48:24
411,Itoman,26.1247,127.6694,298.16,92,75,7.72,JP,2022-05-28 01:50:24
412,Novo Horizonte,-21.4681,-49.2208,291.29,59,100,2.45,BR,2022-05-28 01:50:24
413,Diamantino,-14.4086,-56.4461,296.67,51,100,1.88,BR,2022-05-28 01:50:25
414,Lethem,3.3803,-59.7968,297.43,87,65,2.26,GY,2022-05-28 01:50:25
415,Portland,45.5234,-122.6762,289.67,81,100,1.54,US,2022-05-28 01:47:15
416,Mastic,40.802,-72.8409,292.24,95,75,7.6,US,2022-05-28 01:50:26
417,Goderich,43.7501,-81.7165,285.33,87,100,3.6,CA,2022-05-28 01:50:26
418,Valday,57.9747,33.2525,277.45,98,37,1.79,RU,2022-05-28 01:50:27
419,Astorga,-23.2325,-51.6656,289.84,68,86,2.56,BR,2022-05-28 01:50:27
420,Hit,33.6416,42.8251,299.2,18,0,3.73,IQ,2022-05-28 01:50:28
421,Nichinan,31.6,131.3667,298.97,43,100,1.81,JP,2022-05-28 01:50:28
422,Kapit,2.0167,112.9333,303.42,63,69,0.71,MY,2022-05-28 01:50:28
423,Cherskiy,68.75,161.3,278.25,46,1,5.69,RU,2022-05-28 01:50:29
424,Sechura,-5.5569,-80.8222,292.05,77,17,6.9,PE,2022-05-28 01:50:29
425,Los Llanos De Aridane,28.6585,-17.9182,289.01,82,0,2.68,ES,2022-05-28 01:50:30
426,Prachuap Khiri Khan,12.2167,99.75,298.51,79,100,2.2,TH,2022-05-28 01:50:31
427,Miyako,39.6367,141.9525,289.98,67,57,4.77,JP,2022-05-28 01:46:49
428,Ponta Delgada,37.7333,-25.6667,293.43,88,75,4.12,PT,2022-05-28 01:47:48
429,San Rafael Del Sur,11.8485,-86.4384,301.69,75,98,2.5,NI,2022-05-28 01:50:32
430,Wuchang,44.9143,127.15,295.35,49,91,4.71,CN,2022-05-28 01:50:32
431,Taltal,-25.4,-70.4833,288.27,80,36,1.62,CL,2022-05-28 01:50:33
432,Dukat,62.55,155.55,275.31,92,100,1.74,RU,2022-05-28 01:50:33
433,Tilichiki,60.4667,166.1,277.6,92,100,1.5,RU,2022-05-28 01:50:34
434,Buraydah,26.326,43.975,299.4,15,10,3.79,SA,2022-05-28 01:50:34
435,Russell,32.3502,-85.1999,297.93,73,20,2.06,US,2022-05-28 01:50:35
436,Shakawe,-18.3667,21.85,284.84,41,0,1.01,BW,2022-05-28 01:50:35
437,Kaitong,44.8135,123.15,297.25,24,82,4.91,CN,2022-05-28 01:50:35
438,Tual,-5.6667,132.75,301.69,73,38,6.0,ID,2022-05-28 01:50:36
439,Pathalgaon,22.5667,83.4667,305.45,27,10,1.78,IN,2022-05-28 01:50:36
440,Goya,-29.14,-59.2626,288.63,96,100,2.15,AR,2022-05-28 01:50:37
441,Palmer,42.1584,-72.3287,294.49,82,75,7.72,US,2022-05-28 01:50:37
442,Kandrian,-6.2167,149.55,299.9,85,95,4.51,PG,2022-05-28 01:50:38
443,Xifeng,42.7372,124.7222,298.29,33,66,7.72,CN,2022-05-28 01:50:38
444,Farafangana,-22.8167,47.8333,292.81,80,83,3.89,MG,2022-05-28 01:50:39
445,San Quintin,30.4833,-115.95,289.69,77,0,6.31,MX,2022-05-28 01:50:39
446,Yashkino,55.8736,85.4265,288.29,50,87,4.34,RU,2022-05-28 01:50:40
447,North Bend,43.4065,-124.2243,289.77,91,100,3.09,US,2022-05-28 01:50:40
448,Huarmey,-10.0681,-78.1522,290.66,86,21,3.09,PE,2022-05-28 01:50:40
449,Okhotsk,59.3833,143.3,279.43,76,33,3.74,RU,2022-05-28 01:50:41
450,Burgos,42.3394,-3.7079,284.38,93,1,5.66,ES,2022-05-28 01:48:39
451,Mackay,-21.15,149.2,299.08,62,0,1.41,AU,2022-05-28 01:47:27
452,Nemuro,43.3236,145.575,282.39,98,100,12.29,JP,2022-05-28 01:50:42
453,Awjilah,29.1081,21.2869,300.97,16,0,4.38,LY,2022-05-28 01:50:42
454,Stari Kuty,48.2709,25.1729,283.67,88,100,0.67,UA,2022-05-28 01:50:43
455,Dali,25.7,100.1833,294.28,66,31,2.21,CN,2022-05-28 01:50:43
456,Pochutla,15.7432,-96.4661,300.83,78,100,4.13,MX,2022-05-28 01:50:44
457,Svetlogorsk,52.6333,29.7333,279.3,96,4,4.16,BY,2022-05-28 01:50:44
458,Celestun,20.8667,-90.4,300.18,78,100,6.36,MX,2022-05-28 01:50:45
459,Egvekinot,66.3167,-179.1667,278.65,66,90,1.97,RU,2022-05-28 01:47:24
460,Saint-Francois,46.4154,3.9054,282.84,93,0,0.51,FR,2022-05-28 01:50:45
461,Baculin,7.4525,126.5842,302.3,71,97,1.01,PH,2022-05-28 01:50:46
462,Matara,5.9485,80.5353,299.45,87,100,4.69,LK,2022-05-28 01:50:46
463,Bama,11.5221,13.6856,301.06,48,92,3.22,NG,2022-05-28 01:50:47
464,Mehamn,71.0357,27.8492,278.1,97,100,11.42,NO,2022-05-28 01:50:47
465,Klamath Falls,42.2249,-121.7817,287.31,64,100,6.17,US,2022-05-28 01:50:48
466,Eureka,40.8021,-124.1637,291.3,85,100,1.34,US,2022-05-28 01:50:48
467,Naryan-Mar,67.6713,53.087,283.48,71,98,3.43,RU,2022-05-28 01:50:49
468,Mawlamyine,16.4914,97.6256,298.34,88,100,2.08,MM,2022-05-28 01:50:49
469,El Tigre,8.8875,-64.2454,299.11,54,95,3.49,VE,2022-05-28 01:50:50
470,Mosquera,4.7059,-74.2302,287.2,77,40,2.06,CO,2022-05-28 01:50:50
471,Innisfail,-17.5333,146.0333,297.57,56,20,2.05,AU,2022-05-28 01:50:51
472,Fort Nelson,58.8053,-122.7002,290.92,34,75,3.09,CA,2022-05-28 01:50:51
473,Pangai,-19.8,-174.35,301.21,74,40,4.63,TO,2022-05-28 01:50:51
474,Eyl,7.9803,49.8164,299.35,68,36,9.01,SO,2022-05-28 01:50:52
475,Juneau,58.3019,-134.4197,295.15,100,20,2.57,US,2022-05-28 01:50:52
476,Sao Filipe,14.8961,-24.4956,295.7,82,22,1.39,CV,2022-05-28 01:50:53
477,Grand Gaube,-20.0064,57.6608,294.37,79,0,4.0,MU,2022-05-28 01:50:53
478,Portarlington,53.1622,-7.1911,280.48,89,16,1.59,IE,2022-05-28 01:50:54
479,Muyezerskiy,63.9333,31.65,279.43,92,91,2.47,RU,2022-05-28 01:50:54
480,Jalu,29.0331,21.5482,300.84,16,0,4.11,LY,2022-05-28 01:50:55
481,Cortez,37.3489,-108.5859,301.57,9,0,5.14,US,2022-05-28 01:46:04
482,San Andres,12.5847,-81.7006,301.16,89,40,4.12,CO,2022-05-28 01:50:56
483,Lincoln,40.8,-96.667,299.1,70,0,6.69,US,2022-05-28 01:50:22
484,Prainha,-1.8,-53.48,295.86,97,33,1.04,BR,2022-05-28 01:50:57
485,Autazes,-3.5797,-59.1306,298.93,78,99,1.1,BR,2022-05-28 01:50:57
486,Vardo,70.3705,31.1107,278.14,93,100,8.23,NO,2022-05-28 01:50:58
487,Redmond,47.674,-122.1215,289.77,67,100,3.58,US,2022-05-28 01:46:51
488,Olga,43.7444,135.2892,286.6,91,100,1.05,RU,2022-05-28 01:50:58
489,Bani,18.2833,-70.3333,299.18,83,25,3.49,DO,2022-05-28 01:50:59
490,Savonlinna,61.8699,28.88,280.18,93,0,1.03,FI,2022-05-28 01:50:59
491,Taoudenni,22.6783,-3.9836,308.33,15,47,4.83,ML,2022-05-28 01:51:00
492,Denpasar,-8.65,115.2167,300.96,89,20,1.54,ID,2022-05-28 01:51:00
493,Tombouctou,20.0,-3.0,304.86,15,43,2.52,ML,2022-05-28 01:51:00
494,Kasempa,-13.4584,25.8338,284.25,72,0,2.47,ZM,2022-05-28 01:51:01
495,Hami,42.8,93.45,301.43,26,62,2.72,CN,2022-05-28 01:51:02
496,Ayan,56.45,138.1667,275.58,87,100,5.32,RU,2022-05-28 01:51:02
497,Presidencia Roque Saenz Pena,-26.7852,-60.4388,288.43,96,100,1.12,AR,2022-05-28 01:51:03
498,Champerico,14.3,-91.9167,298.95,79,100,2.24,GT,2022-05-28 01:51:03
499,Pilot Butte,50.4668,-104.4178,287.0,85,100,6.69,CA,2022-05-28 01:51:04
500,Martinsville,36.6915,-79.8725,292.97,100,100,0.0,US,2022-05-28 01:51:04
501,Sitges,41.2351,1.8119,297.64,58,2,2.3,ES,2022-05-28 01:51:05
502,Kutum,14.2,24.6667,295.21,10,6,2.7,SD,2022-05-28 01:51:05
503,Yumen,40.2833,97.2,296.38,33,81,10.17,CN,2022-05-28 01:51:05
504,Barhi,23.9,80.8,306.89,26,52,7.0,IN,2022-05-28 01:51:06
505,Nelson Bay,-32.7167,152.15,293.71,79,100,0.89,AU,2022-05-28 01:51:06
506,Novoagansk,61.9449,76.6625,290.32,45,100,5.24,RU,2022-05-28 01:51:07
507,Laguna,38.421,-121.4238,299.44,54,0,6.69,US,2022-05-28 01:51:08
508,Christchurch,-43.5333,172.6333,288.12,57,3,2.57,NZ,2022-05-28 01:49:11
509,Axim,4.8699,-2.2405,299.0,86,91,1.36,GH,2022-05-28 01:51:08
510,Erenhot,43.6475,111.9767,292.68,40,100,3.91,CN,2022-05-28 01:51:09
511,Bealanana,-14.55,48.7333,284.45,97,20,1.58,MG,2022-05-28 01:51:09
512,Solnechnyy,50.7214,136.6319,283.24,97,100,2.51,RU,2022-05-28 01:51:10
513,Kodinsk,58.6881,99.1844,284.65,32,4,2.81,RU,2022-05-28 01:51:10
514,Barra Patuca,15.8,-84.2833,298.96,87,53,4.45,HN,2022-05-28 01:51:10
515,Ust-Maya,60.4167,134.5333,290.1,41,29,4.43,RU,2022-05-28 01:51:11
516,Boffa,10.1667,-14.0333,296.76,85,100,1.19,GN,2022-05-28 01:51:11
517,Nanakuli,21.3906,-158.1547,302.12,50,100,4.63,US,2022-05-28 01:51:12
518,Tessalit,20.1986,1.0114,305.21,14,75,2.45,ML,2022-05-28 01:51:12
519,Plainview,40.7765,-73.4673,292.05,86,100,6.17,US,2022-05-28 01:51:13
520,Newport,51.5877,-2.9984,283.85,79,35,2.48,GB,2022-05-28 01:51:13
521,Motygino,58.1831,94.7592,286.2,39,12,2.11,RU,2022-05-28 01:51:14
522,Ahipara,-35.1667,173.1667,291.13,59,34,4.99,NZ,2022-05-28 01:51:14
523,Sete,43.4018,3.6966,292.17,64,0,3.91,FR,2022-05-28 01:51:15
524,Kirakira,-10.4544,161.9205,301.21,75,57,2.11,SB,2022-05-28 01:51:15
525,Gubkinskiy,64.434,76.5026,290.81,38,24,5.95,RU,2022-05-28 01:51:16
526,Umarkot,25.3616,69.7362,301.38,72,7,10.89,PK,2022-05-28 01:51:16
527,Camocim,-2.9022,-40.8411,297.45,85,10,2.18,BR,2022-05-28 01:51:17
528,Bairiki,1.3292,172.9752,304.15,66,75,2.57,KI,2022-05-28 01:51:17
529,Nantucket,41.2835,-70.0995,291.18,100,100,6.17,US,2022-05-28 01:51:18
530,Namibe,-15.1961,12.1522,290.96,87,4,3.35,AO,2022-05-28 01:51:18
531,Biasca,46.3597,8.9697,293.48,84,5,4.36,CH,2022-05-28 01:51:18
532,Torbay,47.6666,-52.7314,277.19,81,40,5.14,CA,2022-05-28 01:51:19
533,Motala,58.5371,15.0365,282.02,95,100,5.55,SE,2022-05-28 01:51:19
534,Sao Domingos,-13.3983,-46.3183,290.52,44,5,3.05,BR,2022-05-28 01:51:20
535,Casablanca,33.5928,-7.6192,296.11,60,56,1.79,MA,2022-05-28 01:51:20
536,Alanya,36.5438,31.9998,297.68,49,6,3.23,TR,2022-05-28 01:51:21
537,Zaysan,47.4667,84.8667,298.71,30,4,4.02,KZ,2022-05-28 01:51:21
538,Severnoye,56.3491,78.3619,289.72,74,3,3.42,RU,2022-05-28 01:51:22
539,Tieli,46.95,128.05,295.77,46,58,4.83,CN,2022-05-28 01:51:22
540,Shellbrook,53.2168,-106.4011,293.72,94,100,4.91,CA,2022-05-28 01:51:22
541,Vanavara,60.34,102.2797,282.76,34,10,2.45,RU,2022-05-28 01:51:23
542,Marsh Harbour,26.5412,-77.0636,299.29,72,9,5.52,BS,2022-05-28 01:51:24
543,Altamira,-3.2033,-52.2064,295.08,97,32,0.76,BR,2022-05-28 01:51:25
544,Kimbe,-5.5502,150.1429,302.96,68,95,0.69,PG,2022-05-28 01:51:26
545,Kungurtug,50.5994,97.5228,284.75,42,42,5.11,RU,2022-05-28 01:51:26
546,Morros,-9.4467,-46.3003,295.59,55,7,1.79,BR,2022-05-28 01:51:26
547,Charlestown,-32.95,151.6667,295.99,78,91,2.24,AU,2022-05-28 01:51:27
548,Hervey Bay,-25.2986,152.8535,296.49,73,4,1.79,AU,2022-05-28 01:51:28
549,Istok,42.7808,20.4875,289.07,85,49,1.12,XK,2022-05-28 01:51:28
550,Daru,-9.0763,143.2092,301.0,72,32,5.67,PG,2022-05-28 01:51:28
551,Pahrump,36.2083,-115.9839,306.18,9,100,1.79,US,2022-05-28 01:50:04
552,Oia,40.5426,-8.5386,292.25,75,23,3.47,PT,2022-05-28 01:51:29
553,Yulara,-25.2406,130.9889,293.6,40,65,2.71,AU,2022-05-28 01:51:30
554,Petropavlovsk-Kamchatskiy,53.0452,158.6483,291.48,27,0,3.0,RU,2022-05-28 01:51:30
555,Avenal,36.0041,-120.129,303.02,28,67,2.76,US,2022-05-28 01:51:31
556,Bonavista,48.6499,-53.1147,278.31,83,100,4.99,CA,2022-05-28 01:51:31
557,Raga,8.4596,25.678,295.85,77,74,2.32,SS,2022-05-28 01:51:32
558,Dunedin,-45.8742,170.5036,286.93,51,43,0.72,NZ,2022-05-28 01:51:32
559,Soddy-Daisy,35.2359,-85.1908,294.0,95,0,1.7,US,2022-05-28 01:51:32
560,Cap-Aux-Meules,47.3821,-61.8597,280.18,93,100,10.8,CA,2022-05-28 01:51:33
561,Straumen,63.8709,11.2999,282.15,93,100,6.33,NO,2022-05-28 01:51:33
562,Dinguiraye,11.3,-10.7167,297.14,57,57,0.66,GN,2022-05-28 01:51:34
563,Indramayu,-6.3264,108.32,300.33,79,38,2.09,ID,2022-05-28 01:51:34
564,Mata,40.683,-7.4592,288.57,56,14,2.94,PT,2022-05-28 01:51:35
565,Jizan,17.3333,42.6667,302.67,64,0,0.4,SA,2022-05-28 01:51:35
566,Tabuk,17.4189,121.4443,302.87,69,80,2.88,PH,2022-05-28 01:51:36
567,Manokwari,-0.8667,134.0833,301.85,68,68,2.17,ID,2022-05-28 01:51:36
568,Laureles,26.1092,-97.4941,302.23,65,40,3.6,US,2022-05-28 01:51:36
569,Shenjiamen,29.9576,122.298,291.16,92,100,4.91,CN,2022-05-28 01:51:37
570,Laslea,46.2167,24.65,282.98,88,5,0.23,RO,2022-05-28 01:51:37
571,Moree,-29.4667,149.85,289.16,88,75,1.54,AU,2022-05-28 01:51:38
572,Aksarayskiy,46.7924,48.0119,289.91,67,3,2.97,RU,2022-05-28 01:51:38
573,Novokizhinginsk,51.6115,109.5917,284.32,30,25,4.64,RU,2022-05-28 01:51:39
574,Bardiyah,31.7561,25.0865,296.42,43,0,1.04,LY,2022-05-28 01:51:39
575,Kavaratti,10.5669,72.642,301.16,74,40,3.16,IN,2022-05-28 01:51:40
576,Kwinana,-32.25,115.7667,293.9,57,3,0.45,AU,2022-05-28 01:51:40
577,Amiens,49.9,2.3,284.84,90,40,2.31,FR,2022-05-28 01:51:40
578,Carlsbad,33.1581,-117.3506,293.94,77,0,4.63,US,2022-05-28 01:51:00
579,Piranshahr,36.701,45.1413,285.0,43,0,2.41,IR,2022-05-28 01:51:41
580,Praya,14.9215,-23.5087,295.45,83,20,6.69,CV,2022-05-28 01:51:41
581,Talcahuano,-36.7167,-73.1167,279.97,81,8,2.57,CL,2022-05-28 01:51:42
582,Kemin,42.7846,75.6892,285.5,87,99,1.01,KG,2022-05-28 01:51:42
583,Montlucon,46.3333,2.6,282.43,96,87,1.28,FR,2022-05-28 01:51:43
584,Bereda,43.2686,-7.5406,285.69,100,78,1.63,ES,2022-05-28 01:51:43
585,Rutana,-3.8667,30.1,287.14,87,99,1.28,BI,2022-05-28 01:51:44
586,La Gomera,14.0833,-91.05,297.38,89,100,2.16,GT,2022-05-28 01:51:44
587,Salta,-24.7859,-65.4117,286.48,84,100,4.12,AR,2022-05-28 01:51:44
588,Chake Chake,-5.2459,39.7666,297.65,83,60,4.88,TZ,2022-05-28 01:51:45
589,Shenkursk,62.1091,42.896,281.11,97,100,2.56,RU,2022-05-28 01:51:45
590,Micheweni,-4.9667,39.8333,298.55,80,63,5.18,TZ,2022-05-28 01:51:46
591,Dahegam,23.1667,72.8167,303.02,66,8,6.53,IN,2022-05-28 01:51:46
592,Cabatuan,10.8794,122.486,302.47,73,100,4.53,PH,2022-05-28 01:51:47
593,Omsukchan,62.5333,155.8,276.29,93,100,1.83,RU,2022-05-28 01:51:47
594,Kamenka,51.3223,42.7678,283.81,84,20,6.44,RU,2022-05-28 01:51:47
595,Den Helder,52.9599,4.7593,285.38,73,75,7.6,NL,2022-05-28 01:51:48
596,Gat,31.61,34.7642,296.7,100,91,1.02,IL,2022-05-28 01:51:48
597,Maumere,-8.6199,122.2111,301.88,67,0,1.37,ID,2022-05-28 01:51:49
598,Macenta,8.5435,-9.471,293.54,95,57,0.67,GN,2022-05-28 01:51:49
599,Narsaq,60.9167,-46.05,280.16,51,100,4.31,GL,2022-05-28 01:51:50
600,Lamont,35.2597,-118.9143,302.59,30,100,4.34,US,2022-05-28 01:51:50
601,Pitimbu,-7.4706,-34.8086,297.48,89,100,5.16,BR,2022-05-28 01:51:51
602,Stupino,54.9008,38.0708,280.09,94,99,2.49,RU,2022-05-28 01:51:51
603,Simao,22.7886,100.9748,298.05,62,22,1.58,CN,2022-05-28 01:51:51
604,Werda,-25.2667,23.2833,287.86,38,0,4.41,BW,2022-05-28 01:51:52
605,Asyut,27.181,31.1837,298.25,31,0,5.02,EG,2022-05-28 01:51:52
606,Kitui,-1.367,38.0106,290.29,90,100,1.98,KE,2022-05-28 01:51:53
607,Lokhvytsya,50.3678,33.2602,283.88,94,100,4.9,UA,2022-05-28 01:51:53
608,Barabai,-2.5833,115.3833,302.73,66,74,0.57,ID,2022-05-28 01:51:54
609,Atar,20.5169,-13.0499,301.29,47,59,5.31,MR,2022-05-28 01:51:54
610,Shache,38.4167,77.2406,299.13,21,100,2.54,CN,2022-05-28 01:51:54
611,Gombe,10.2897,11.1673,298.68,66,50,6.71,NG,2022-05-28 01:51:55
612,Rocha,-34.4833,-54.3333,281.1,85,10,1.95,UY,2022-05-28 01:48:26
613,Pinega,64.7001,43.3936,281.18,87,41,2.67,RU,2022-05-28 01:51:56
614,Mao,39.8885,4.2658,294.46,60,0,8.75,ES,2022-05-28 01:51:56
615,Inhambane,-23.865,35.3833,293.51,78,0,2.04,MZ,2022-05-28 01:51:56
616,Santa Rosalia,27.3167,-112.2833,303.12,22,0,4.24,MX,2022-05-28 01:51:57
617,Ayorou,14.7308,0.9174,305.81,26,5,4.45,NE,2022-05-28 01:51:58
618,Severnyy,50.677,36.5532,287.17,82,75,7.0,RU,2022-05-28 01:51:58
619,Kundiawa,-6.0167,144.9667,298.48,61,63,0.74,PG,2022-05-28 01:51:58
620,Chernyshevskiy,63.0128,112.4714,281.56,35,12,3.22,RU,2022-05-28 01:51:59
621,Vila Franca Do Campo,37.7167,-25.4333,293.26,93,100,2.6,PT,2022-05-28 01:51:59
622,Mitsamiouli,-11.3847,43.2844,298.93,67,17,4.44,KM,2022-05-28 01:52:00
623,Westport,41.1415,-73.3579,292.64,93,0,7.2,US,2022-05-28 01:52:00
624,Rio Grande,-32.035,-52.0986,288.21,95,85,3.65,BR,2022-05-28 01:48:51
625,Topchikha,52.8192,83.1185,292.27,48,64,2.21,RU,2022-05-28 01:52:01
626,Kudirkos Naumiestis,54.7731,22.8631,278.97,94,42,6.08,LT,2022-05-28 01:52:02
627,Magadan,59.5667,150.8,285.67,84,56,2.6,RU,2022-05-28 01:52:02
628,Nizhniy Bestyakh,61.9594,129.9086,283.86,62,40,6.0,RU,2022-05-28 01:52:03
629,Miri,4.4148,114.0089,301.23,78,20,3.6,MY,2022-05-28 01:52:03
630,Asau,46.4333,26.4,285.35,92,17,0.4,RO,2022-05-28 01:52:03
631,Porto Walter,-8.2686,-72.7439,295.28,96,20,1.25,BR,2022-05-28 01:52:04
632,Zhuhai,22.2769,113.5678,304.74,89,40,5.66,CN,2022-05-28 01:51:47
633,Karachi,24.9056,67.0822,302.05,74,75,5.14,PK,2022-05-28 01:52:05
634,Bagrami,34.4938,69.2743,289.91,38,0,0.96,AF,2022-05-28 01:52:05
635,Karasuk,53.7377,78.0403,288.72,68,70,5.6,RU,2022-05-28 01:52:06
636,Ardakan,32.31,54.0175,293.87,17,0,4.58,IR,2022-05-28 01:52:06
637,Novo Aripuana,-5.1206,-60.3797,296.86,90,83,0.99,BR,2022-05-28 01:52:07
638,Slave Lake,55.2834,-114.769,290.14,59,100,3.09,CA,2022-05-28 01:52:07
639,Abha,18.2164,42.5053,291.05,22,0,0.0,SA,2022-05-28 01:52:08
640,Zamania,25.4333,83.5667,308.18,25,14,1.77,IN,2022-05-28 01:52:08
641,Doha,25.2867,51.5333,304.14,22,0,5.14,QA,2022-05-28 01:48:41
642,Polunochnoye,60.8697,60.4153,280.56,93,100,1.4,RU,2022-05-28 01:52:09
643,Barra,-11.0894,-43.1417,297.29,57,78,4.92,BR,2022-05-28 01:52:09
644,Tranas,58.0372,14.9782,280.03,98,98,3.24,SE,2022-05-28 01:52:10
645,Maridi,4.9158,29.4742,291.85,99,100,2.11,SS,2022-05-28 01:52:10
646,Whitehorse,60.7161,-135.0538,285.58,62,40,3.09,CA,2022-05-28 01:52:11
647,Stokmarknes,68.5646,14.9108,280.14,87,75,0.51,NO,2022-05-28 01:52:11
648,Raposa,-6.5167,-44.1833,294.51,72,14,1.18,BR,2022-05-28 01:52:12
649,Gambo,4.6482,22.2633,293.0,98,21,0.14,CF,2022-05-28 01:52:12
650,Aranos,-24.1333,19.1167,286.72,27,0,4.69,NA,2022-05-28 01:52:12
651,Wote,-1.7808,37.6288,290.6,89,100,0.26,KE,2022-05-28 01:52:13
652,Nouadhibou,20.931,-17.0347,293.14,88,40,4.63,MR,2022-05-28 01:52:14
653,Sept-Iles,50.2001,-66.3821,279.44,96,100,8.23,CA,2022-05-28 01:52:03
654,Huilong,31.8111,121.655,295.29,69,100,6.64,CN,2022-05-28 01:52:14
655,Amarillo,35.222,-101.8313,305.49,23,0,10.29,US,2022-05-28 01:49:52
656,Road Town,18.4167,-64.6167,300.2,78,40,4.12,VG,2022-05-28 01:50:12
657,Birnin Kebbi,12.4539,4.1975,302.89,53,8,5.78,NG,2022-05-28 01:52:15
658,Machaneng,-23.1862,27.4886,286.34,94,0,2.98,BW,2022-05-28 01:52:16
659,Kenai,60.5544,-151.2583,296.5,25,0,5.14,US,2022-05-28 01:52:16
660,Waslala,13.2333,-85.3833,295.42,96,39,0.48,NI,2022-05-28 01:52:16
661,Weligama,5.9667,80.4167,299.65,85,100,4.94,LK,2022-05-28 01:52:17
662,Sanchor,24.7553,71.7722,302.39,66,9,8.46,IN,2022-05-28 01:52:17
663,Kitimat,54.0524,-128.6534,286.36,26,100,1.06,CA,2022-05-28 01:52:18
664,Dolores,-36.3132,-57.6792,279.1,75,83,1.48,AR,2022-05-28 01:52:18
665,Padang,-0.9492,100.3543,297.18,75,99,1.75,ID,2022-05-28 01:52:19
666,Olden,61.8364,6.8064,282.56,99,100,1.53,NO,2022-05-28 01:52:19
667,Launceston,-41.45,147.1667,283.79,81,100,2.57,AU,2022-05-28 01:52:20
668,Labuan,5.2767,115.2417,301.35,83,20,1.54,MY,2022-05-28 01:52:20
669,Vangaindrano,-23.35,47.6,291.41,82,53,3.23,MG,2022-05-28 01:52:21
670,Cicevac,43.7188,21.4408,289.69,88,63,1.3,RS,2022-05-28 01:52:21
671,Muisne,0.6,-80.0333,297.2,93,100,4.34,EC,2022-05-28 01:52:22
672,Reconquista,-29.15,-59.65,288.33,96,100,2.5,AR,2022-05-28 01:52:22
673,Tyulyachi,55.8913,50.2399,282.44,95,100,6.19,RU,2022-05-28 01:52:23
674,Bichura,50.5881,107.6022,284.44,36,100,5.08,RU,2022-05-28 01:52:23
675,Leningradskiy,69.3833,178.4167,273.15,97,100,1.43,RU,2022-05-28 01:52:24
676,Isoka,-10.1606,32.6335,287.08,74,52,1.77,ZM,2022-05-28 01:52:24
677,Luganville,-15.5333,167.1667,300.84,64,100,1.08,VU,2022-05-28 01:52:25
678,Khash,28.2211,61.2158,294.79,23,0,4.1,IR,2022-05-28 01:52:25
679,Salto,-31.3833,-57.9667,286.41,99,100,1.34,UY,2022-05-28 01:50:56
680,Yeppoon,-23.1333,150.7333,298.03,62,3,1.52,AU,2022-05-28 01:52:26
681,Huntsville,34.7304,-86.5861,293.04,80,100,2.06,US,2022-05-28 01:49:09
682,Lucea,18.451,-78.1736,299.07,74,91,1.47,JM,2022-05-28 01:52:26
683,Flinders,-34.5833,150.8552,293.81,71,100,4.47,AU,2022-05-28 01:52:27
684,Gemena,3.25,19.7667,293.42,96,1,1.08,CD,2022-05-28 01:52:27
685,Gazli,40.1333,63.45,290.78,40,1,3.59,UZ,2022-05-28 01:52:28
686,Machhlishahr,25.6833,82.4167,308.14,29,40,3.65,IN,2022-05-28 01:52:28
687,Koumac,-20.5667,164.2833,299.89,68,33,5.62,NC,2022-05-28 01:52:29
688,Lima,-12.0432,-77.0282,289.29,82,0,4.63,PE,2022-05-28 01:51:09
689,Zhezkazgan,47.8043,67.7144,287.14,44,75,4.0,KZ,2022-05-28 01:52:29
690,Pekan,3.4836,103.3996,301.21,81,99,2.0,MY,2022-05-28 01:52:30
691,Shasta Lake,40.6804,-122.3708,297.49,39,100,3.49,US,2022-05-28 01:52:30
692,Ostrovnoy,68.0531,39.5131,279.94,82,92,6.97,RU,2022-05-28 01:52:30
693,Mount Darwin,-16.7725,31.5838,284.68,93,0,0.96,ZW,2022-05-28 01:52:31
694,Thaba-Tseka,-29.522,28.6084,277.24,58,0,1.97,LS,2022-05-28 01:52:31
695,Marzuq,14.4,46.4667,296.19,32,21,1.51,YE,2022-05-28 01:52:32
696,Kambove,-10.8764,26.5969,284.37,75,0,1.98,CD,2022-05-28 01:52:33
697,Gushi,34.6425,109.5843,301.14,31,100,2.4,CN,2022-05-28 01:52:33
698,Tezu,27.9167,96.1667,300.04,78,98,0.75,IN,2022-05-28 01:52:33
699,Cabo San Lucas,22.8909,-109.9124,303.76,65,1,5.38,MX,2022-05-28 01:50:33
700,Mpongwe,-13.5091,28.155,284.99,69,0,2.37,ZM,2022-05-28 01:52:34
701,Neuss,51.2,6.6833,284.11,78,0,3.6,DE,2022-05-28 01:52:35
702,Zapolyarnyy,69.4154,30.8136,276.75,95,100,6.87,RU,2022-05-28 01:52:36
703,Calvinia,-31.4707,19.776,283.08,42,0,1.53,ZA,2022-05-28 01:52:36
